{
  "type": "FeatureCollection",
  "features": [
    {"type": "Feature","geometry": {"type": "Point","coordinates": [1275017.394,218175.5352]},"properties": {"NAME": "Beacon Bluff","ADDRESS": "1701 15th Ave S"}},
    {"type": "Feature","geometry": {"type": "Point","coordinates": [1272247.874,267694.7811]},"properties": {"NAME": "Haller Lake","ADDRESS": "13045 1st Ave NE"}},
    {"type": "Feature","geometry": {"type": "Point","coordinates": [1272559.823,229653.9877]},"properties": {"NAME": "Unpaving Paradise","ADDRESS": "200 Summit Ave E"}},
    {"type": "Feature","geometry": {"type": "Point","coordinates": [1265968.985,236723.0865]},"properties": {"NAME": "Queen Anne","ADDRESS": "217 Lynn St"}},
    {"type": "Feature","geometry": {"type": "Point","coordinates": [1266882.108,256584.9279]},"properties": {"NAME": "Greenwood Station","ADDRESS": "8815 Fremont Ave N"}},
    {"type": "Feature","geometry": {"type": "Point","coordinates": [1273962.927,230151.7405]},"properties": {"NAME": "Thomas Street Gardens","ADDRESS": "1010 E Thomas St"}},
    {"type": "Feature","geometry": {"type": "Point","coordinates": [1267876.035,242637.2463]},"properties": {"NAME": "Fremont","ADDRESS": "3935 Woodland Park Ave N"}},
    {"type": "Feature","geometry": {"type": "Point","coordinates": [1274263.516,208546.886]},"properties": {"NAME": "Snoqualmie","ADDRESS": "4549 13th Ave S"}},
    {"type": "Feature","geometry": {"type": "Point","coordinates": [1256559.265,241300.7261]},"properties": {"NAME": "Magnolia Manor Park","ADDRESS": "3500 28th Ave W"}},
    {"type": "Feature","geometry": {"type": "Point","coordinates": [1280581.804,217473.4998]},"properties": {"NAME": "Colman Park","ADDRESS": "1716 32nd Ave S"}},
    {"type": "Feature","geometry": {"type": "Point","coordinates": [1280511.98,231400.5179]},"properties": {"NAME": "Madison Valley Mad P","ADDRESS": "3000 E Mercer St"}},
    {"type": "Feature","geometry": {"type": "Point","coordinates": [1267334.909,270731.8214]},"properties": {"NAME": "Bitter Lake","ADDRESS": "N 143rd St & Linden Ave N"}},
    {"type": "Feature","geometry": {"type": "Point","coordinates": [1270693.882,230113.37]},"properties": {"NAME": "Cascade","ADDRESS": "310 Minor Ave N"}},
    {"type": "Feature","geometry": {"type": "Point","coordinates": [1266814.303,259954.9105]},"properties": {"NAME": "Evanston","ADDRESS": "604 N 101st St"}},
    {"type": "Feature","geometry": {"type": "Point","coordinates": [1275531.873,263537.4476]},"properties": {"NAME": "Pinehurst","ADDRESS": "11525 12th Ave NE"}},
    {"type": "Feature","geometry": {"type": "Point","coordinates": [1266382.544,231662.9982]},"properties": {"NAME": "UpGarden","ADDRESS": "300 Mercer St"}},
    {"type": "Feature","geometry": {"type": "Point","coordinates": [1276316.27,220686.5024]},"properties": {"NAME": "Climbing Water","ADDRESS": "850 Hiawatha Pl S"}},
    {"type": "Feature","geometry": {"type": "Point","coordinates": [1267186.087,241378.9078]},"properties": {"NAME": "Troll's Knoll","ADDRESS": "820 N 36th St"}},
    {"type": "Feature","geometry": {"type": "Point","coordinates": [1277125.019,231393.4796]},"properties": {"NAME": "Pelican Tea Garden","ADDRESS": "1909 E Roy St"}},
    {"type": "Feature","geometry": {"type": "Point","coordinates": [1255670.289,199479.2185]},"properties": {"NAME": "Solstice","ADDRESS": "7400 Fauntleroy Way SW"}},
    {"type": "Feature","geometry": {"type": "Point","coordinates": [1262561.324,206222.8744]},"properties": {"NAME": "Delridge","ADDRESS": "5200 25th Ave SW"}},
    {"type": "Feature","geometry": {"type": "Point","coordinates": [1272953.139,202349.8905]},"properties": {"NAME": "Oxbow Park","ADDRESS": "6430 Corson Ave S"}},
    {"type": "Feature","geometry": {"type": "Point","coordinates": [1283814.424,247039.76]},"properties": {"NAME": "Burke-Gilman Gardens","ADDRESS": "5200 Mithun Pl NE"}},
    {"type": "Feature","geometry": {"type": "Point","coordinates": [1279525.417,224722.3825]},"properties": {"NAME": "Hawkins","ADDRESS": "504 M L King Jr Way"}},
    {"type": "Feature","geometry": {"type": "Point","coordinates": [1267262.175,235394.5613]},"properties": {"NAME": "Queen Pea","ADDRESS": "1800 5th Ave N"}},
    {"type": "Feature","geometry": {"type": "Point","coordinates": [1277193.036,230860.0019]},"properties": {"NAME": "Republican","ADDRESS": "503 20th Ave E"}},
    {"type": "Feature","geometry": {"type": "Point","coordinates": [1275162.836,223422.0924]},"properties": {"NAME": "Squire Park","ADDRESS": "152 14th Ave"}},
    {"type": "Feature","geometry": {"type": "Point","coordinates": [1274931.75,267823.3745]},"properties": {"NAME": "Jackson Park","ADDRESS": "13049 10th Ave NE"}},
    {"type": "Feature","geometry": {"type": "Point","coordinates": [1260855.986,247348.1367]},"properties": {"NAME": "Greg's Garden","ADDRESS": "1401 NW 54th St"}},
    {"type": "Feature","geometry": {"type": "Point","coordinates": [1276908.623,206769.3135]},"properties": {"NAME": "Maa Nyei Lai Ndeic","ADDRESS": "4913 Columbia Dr S"}},
    {"type": "Feature","geometry": {"type": "Point","coordinates": [1278583.033,226581.264]},"properties": {"NAME": "Spring Street","ADDRESS": "1101 25th Ave"}},
    {"type": "Feature","geometry": {"type": "Point","coordinates": [1284625.336,205090.4913]},"properties": {"NAME": "Brandon Street Orchard","ADDRESS": "4625 S Brandon St"}},
    {"type": "Feature","geometry": {"type": "Point","coordinates": [1279037.635,254274.3243]},"properties": {"NAME": "Picardo Farm","ADDRESS": "8040 25th Ave NE"}},
    {"type": "Feature","geometry": {"type": "Point","coordinates": [1275802.13,228951.5476]},"properties": {"NAME": "Howell Collective","ADDRESS": "1514 E Howell Street"}},
    {"type": "Feature","geometry": {"type": "Point","coordinates": [1281221.624,211889.4385]},"properties": {"NAME": "Courtland Place","ADDRESS": "S Spokane St & 36th Ave S"}},
    {"type": "Feature","geometry": {"type": "Point","coordinates": [1271019.534,257566.9927]},"properties": {"NAME": "Licton Springs","ADDRESS": "College Way N & N 92nd St"}},
    {"type": "Feature","geometry": {"type": "Point","coordinates": [1264355.68,243684.2091]},"properties": {"NAME": "Hazel Heights","ADDRESS": "4200 Baker Ave NW"}},
    {"type": "Feature","geometry": {"type": "Point","coordinates": [1263941.341,256360.2371]},"properties": {"NAME": "Greenwood","ADDRESS": "343 NW 88th St"}},
    {"type": "Feature","geometry": {"type": "Point","coordinates": [1280823.729,231644.1208]},"properties": {"NAME": "Ida Mia Garden","ADDRESS": "E Madison St & Lake Washington Blvd E"}},
    {"type": "Feature","geometry": {"type": "Point","coordinates": [1259314.561,193816.629]},"properties": {"NAME": "Barton Street","ADDRESS": "3405 SW Barton St"}},
    {"type": "Feature","geometry": {"type": "Point","coordinates": [1282889.546,201875.1275]},"properties": {"NAME": "Angel Morgan","ADDRESS": "3956 S Morgan St"}},
    {"type": "Feature","geometry": {"type": "Point","coordinates": [1272666.357,239746.2208]},"properties": {"NAME": "Eastlake","ADDRESS": "2892 Fairview Ave E"}},
    {"type": "Feature","geometry": {"type": "Point","coordinates": [1267337.256,251008.0771]},"properties": {"NAME": "Linden Orchard","ADDRESS": "744 N 67th St"}},
    {"type": "Feature","geometry": {"type": "Point","coordinates": [1275950.497,247585.7167]},"properties": {"NAME": "Shiga's Garden","ADDRESS": "5522 University Way NE"}},
    {"type": "Feature","geometry": {"type": "Point","coordinates": [1267311.481,194204.3249]},"properties": {"NAME": "Westcrest Garden","ADDRESS": "9000 8th Ave SW"}},
    {"type": "Feature","geometry": {"type": "Point","coordinates": [1273898.159,259940.5085]},"properties": {"NAME": "Maple Leaf","ADDRESS": "529 NE 103rd St"}},
    {"type": "Feature","geometry": {"type": "Point","coordinates": [1279629.595,217619.2401]},"properties": {"NAME": "Bradner Gardens Park","ADDRESS": "1750 Bradner Pl S"}},
    {"type": "Feature","geometry": {"type": "Point","coordinates": [1280491.404,212233.7004]},"properties": {"NAME": "Estelle Street","ADDRESS": "S Estelle St & Wetmore Ave S"}},
    {"type": "Feature","geometry": {"type": "Point","coordinates": [1259880.901,237706.5682]},"properties": {"NAME": "Interbay","ADDRESS": "2451 15th Ave W"}},
    {"type": "Feature","geometry": {"type": "Point","coordinates": [1278125.957,246557.22]},"properties": {"NAME": "Ravenna","ADDRESS": "5200 Ravenna Ave NE"}},
    {"type": "Feature","geometry": {"type": "Point","coordinates": [1278153.041,219662.6181]},"properties": {"NAME": "Judkins","ADDRESS": "1107 24th Ave S"}},
    {"type": "Feature","geometry": {"type": "Point","coordinates": [1264206.158,249002.7006]},"properties": {"NAME": "Phinney Ridge","ADDRESS": "5926 3rd Ave NW"}},
    {"type": "Feature","geometry": {"type": "Point","coordinates": [1271113.63,245562.8226]},"properties": {"NAME": "Good Shepherd","ADDRESS": "4618 Bagley Ave N"}},
    {"type": "Feature","geometry": {"type": "Point","coordinates": [1275767.491,246314.2955]},"properties": {"NAME": "University Heights","ADDRESS": "5031 University Way NE"}},
    {"type": "Feature","geometry": {"type": "Point","coordinates": [1281476.352,200361.7502]},"properties": {"NAME": "John C. Little Garden","ADDRESS": "37th Ave S & S Willow St"}},
    {"type": "Feature","geometry": {"type": "Point","coordinates": [1282846.016,195699.7768]},"properties": {"NAME": "Thistle","ADDRESS": "8420 42nd Ave S"}},
    {"type": "Feature","geometry": {"type": "Point","coordinates": [1273944.769,223502.7325]},"properties": {"NAME": "Horuichi Park","ADDRESS": "156 Boren Ave"}},
    {"type": "Feature","geometry": {"type": "Point","coordinates": [1266119.349,227661.1952]},"properties": {"NAME": "Belltown","ADDRESS": "2520 Elliott Ave"}},
    {"type": "Feature","geometry": {"type": "Point","coordinates": [1262403.807,252161.0286]},"properties": {"NAME": "Kirke Park","ADDRESS": "7028 9th Ave NW"}},
    {"type": "Feature","geometry": {"type": "Point","coordinates": [1262250.269,196559.9667]},"properties": {"NAME": "Longfellow Creek","ADDRESS": "2450 SW Thistle St"}},
    {"type": "Feature","geometry": {"type": "Point","coordinates": [1274038.25,242932.5455]},"properties": {"NAME": "University District","ADDRESS": "4009 8th Ave NE"}},
    {"type": "Feature","geometry": {"type": "Point","coordinates": [1257224.878,256111.3592]},"properties": {"NAME": "Ballard","ADDRESS": "8527 25th Ave NW"}},
    {"type": "Feature","geometry": {"type": "Point","coordinates": [1274165.358,230956.8402]},"properties": {"NAME": "Broadway Hill","ADDRESS": "500 Federal Ave E"}},
    {"type": "Feature","geometry": {"type": "Point","coordinates": [1270993.88,193871.2213]},"properties": {"NAME": "Marra Farm","ADDRESS": "9026 4th Ave S"}},
    {"type": "Feature","geometry": {"type": "Point","coordinates": [1255625.724,248544.2484]},"properties": {"NAME": "Thyme Patch Park","ADDRESS": "2853 NW 58th St"}},
    {"type": "Feature","geometry": {"type": "Point","coordinates": [1284503.45,204870.6814]},"properties": {"NAME": "Hillman City","ADDRESS": "4613 S Lucile St"}},
    {"type": "Feature","geometry": {"type": "Point","coordinates": [1289451.249,252349.3505]},"properties": {"NAME": "Magnuson Park","ADDRESS": "7400 Sand Point Way NE"}},
    {"type": "Feature","geometry": {"type": "Point","coordinates": [1275174.399,210610.4152]},"properties": {"NAME": "Beacon Food Forest","ADDRESS": "3950 15th Ave S"}},
    {"type": "Feature","geometry": {"type": "Point","coordinates": [1275372.389,251526.0052]},"properties": {"NAME": "Roosevelt","ADDRESS": "7012 12th Ave NE"}},
    {"type": "Feature","geometry": {"type": "Point","coordinates": [1260161.338,204398.8234]},"properties": {"NAME": "High Point Juneau Garden and Market Garden","ADDRESS": "5900 32nd Ave SW"}},
    {"type": "Feature","geometry": {"type": "Point","coordinates": [1261007.886,204612.144]},"properties": {"NAME": "High Point MacArthur Lane Park Garden","ADDRESS": "2726 SW MacArthur Ln"}},
    {"type": "Feature","geometry": {"type": "Point","coordinates": [1280420.384,208830.6266]},"properties": {"NAME": "Rainier Vista Sunrise Garden","ADDRESS": "4450 Renton Ave S"}},
    {"type": "Feature","geometry": {"type": "Point","coordinates": [1279166.893,200915.4172]},"properties": {"NAME": "NewHolly 29th Ave Garden","ADDRESS": "29th Ave S / S Brighton St"}},
    {"type": "Feature","geometry": {"type": "Point","coordinates": [1281095.225,199749.2211]},"properties": {"NAME": "NewHolly Power Garden","ADDRESS": "7123 Holly Park Dr S"}},
    {"type": "Feature","geometry": {"type": "Point","coordinates": [1281425.094,266016.2056]},"properties": {"NAME": "Lake City Court Garden","ADDRESS": "12536 33rd Ave NE"}},
    {"type": "Feature","geometry": {"type": "Point","coordinates": [1280517.108,201021.2972]},"properties": {"NAME": "NewHolly Youth and Family","ADDRESS": "32nd Ave S / S Brighton St"}},
    {"type": "Feature","geometry": {"type": "Point","coordinates": [1278878.178,210201.0782]},"properties": {"NAME": "Rainier Vista Dakota West","ADDRESS": "2902 S Dakota St"}},
    {"type": "Feature","geometry": {"type": "Point","coordinates": [1279445.125,214642.7342]},"properties": {"NAME": "Hillside Garden","ADDRESS": "2570 M L King Jr Way S"}}
  ]
}